<?xml version="1.0" encoding="UTF-8"?>
<kml xmlns="http://www.opengis.net/kml/2.2">
<Document>
      <Placemark>
        <name>KK4SGC</name>
        <description>test description</description>
        <Point>
          <coordinates>-84.84079742, 33.92369843, 0</coordinates>
        </Point>
      </Placemark>
    
      <Placemark>
        <name>KJ4KLD</name>
        <description>test description</description>
        <Point>
          <coordinates>-84.33139801, 34.48619843, 0</coordinates>
        </Point>
      </Placemark>
    
      <Placemark>
        <name>KJ4PYA</name>
        <description>test description</description>
        <Point>
          <coordinates>-81.68979645, 30.79999924, 0</coordinates>
        </Point>
      </Placemark>
    
      <Placemark>
        <name>KK4JPG</name>
        <description>test description</description>
        <Point>
          <coordinates>-83.8911972, 33.54650116, 0</coordinates>
        </Point>
      </Placemark>
    
      <Placemark>
        <name>KJ4PYC</name>
        <description>test description</description>
        <Point>
          <coordinates>-83.5345993, 33.94929886, 0</coordinates>
        </Point>
      </Placemark>
    
      <Placemark>
        <name>K4NRC</name>
        <description>test description</description>
        <Point>
          <coordinates>-81.43340302, 31.73550034, 0</coordinates>
        </Point>
      </Placemark>
    
      <Placemark>
        <name>W4VLD</name>
        <description>test description</description>
        <Point>
          <coordinates>-83.5248933, 34.6125971, 0</coordinates>
        </Point>
      </Placemark>
    
      <Placemark>
        <name>N4LMC</name>
        <description>test description</description>
        <Point>
          <coordinates>-83.55200195, 34.49000168, 0</coordinates>
        </Point>
      </Placemark>
    
      <Placemark>
        <name>KE4URL</name>
        <description>test description</description>
        <Point>
          <coordinates>-83.76270294, 34.10929871, 0</coordinates>
        </Point>
      </Placemark>
    
      <Placemark>
        <name>KJ4KPY</name>
        <description>test description</description>
        <Point>
          <coordinates>-83.80680084, 34.50930023, 0</coordinates>
        </Point>
      </Placemark>
    
      <Placemark>
        <name>KJ4YNR</name>
        <description>test description</description>
        <Point>
          <coordinates>-81.07316667, 32.04133333, 0</coordinates>
        </Point>
      </Placemark>
    
      <Placemark>
        <name>K4KNS</name>
        <description>test description</description>
        <Point>
          <coordinates>-82.15509796, 32.582901, 0</coordinates>
        </Point>
      </Placemark>
    
      <Placemark>
        <name>WB4ULJ</name>
        <description>test description</description>
        <Point>
          <coordinates>-84.25279999, 30.80929947, 0</coordinates>
        </Point>
      </Placemark>
    
      <Placemark>
        <name>KI4CCZ</name>
        <description>test description</description>
        <Point>
          <coordinates>-83.63240051, 32.84069824, 0</coordinates>
        </Point>
      </Placemark>
    
      <Placemark>
        <name>KK4GQ</name>
        <description>test description</description>
        <Point>
          <coordinates>-84.2382482, 32.5570898, 0</coordinates>
        </Point>
      </Placemark>
    
      <Placemark>
        <name>W4DRC</name>
        <description>test description</description>
        <Point>
          <coordinates>-83.33239746, 34.57730103, 0</coordinates>
        </Point>
      </Placemark>
    
      <Placemark>
        <name>K4IO</name>
        <description>test description</description>
        <Point>
          <coordinates>-83.412053, 34.904687, 0</coordinates>
        </Point>
      </Placemark>
    
      <Placemark>
        <name>WR4SG</name>
        <description>test description</description>
        <Point>
          <coordinates>-84.814891, 32.837678, 0</coordinates>
        </Point>
      </Placemark>
    
      <Placemark>
        <name>K4BRK</name>
        <description>test description</description>
        <Point>
          <coordinates>-84.878458, 32.461324, 0</coordinates>
        </Point>
      </Placemark>
    
      <Placemark>
        <name>WR4VR</name>
        <description>test description</description>
        <Point>
          <coordinates>-84.67620087, 32.8708992, 0</coordinates>
        </Point>
      </Placemark>
    
      <Placemark>
        <name>WB4GWA</name>
        <description>test description</description>
        <Point>
          <coordinates>-84.6413218, 34.3209267, 0</coordinates>
        </Point>
      </Placemark>
    
      <Placemark>
        <name>KG4VUB</name>
        <description>test description</description>
        <Point>
          <coordinates>-83.63240051, 32.84069824, 0</coordinates>
        </Point>
      </Placemark>
    
      <Placemark>
        <name>KJ4GGV</name>
        <description>test description</description>
        <Point>
          <coordinates>-83.63240051, 32.84069824, 0</coordinates>
        </Point>
      </Placemark>
    
      <Placemark>
        <name>KA3JIJ</name>
        <description>test description</description>
        <Point>
          <coordinates>-82.90380096, 32.54040146, 0</coordinates>
        </Point>
      </Placemark>
    
      <Placemark>
        <name>WX4BWK</name>
        <description>test description</description>
        <Point>
          <coordinates>-84.38800049, 33.74900055, 0</coordinates>
        </Point>
      </Placemark>
    
      <Placemark>
        <name>KA4RVT</name>
        <description>test description</description>
        <Point>
          <coordinates>-82.00969696, 33.4742012, 0</coordinates>
        </Point>
      </Placemark>
    
      <Placemark>
        <name>WX4EMA</name>
        <description>test description</description>
        <Point>
          <coordinates>-84.39479828, 33.79679871, 0</coordinates>
        </Point>
      </Placemark>
    
      <Placemark>
        <name>WX4PCA</name>
        <description>test description</description>
        <Point>
          <coordinates>-83.9582412, 34.8761989, 0</coordinates>
        </Point>
      </Placemark>
    
      <Placemark>
        <name>W4DOC</name>
        <description>test description</description>
        <Point>
          <coordinates>-82.00969696, 33.4742012, 0</coordinates>
        </Point>
      </Placemark>
    
      <Placemark>
        <name>W4GTA</name>
        <description>test description</description>
        <Point>
          <coordinates>-84.36530304, 32.98659897, 0</coordinates>
        </Point>
      </Placemark>
    
      <Placemark>
        <name>WB4JOE</name>
        <description>test description</description>
        <Point>
          <coordinates>-82.90380096, 32.54040146, 0</coordinates>
        </Point>
      </Placemark>
    
      <Placemark>
        <name>W4UCJ</name>
        <description>test description</description>
        <Point>
          <coordinates>-83.070694, 33.548194, 0</coordinates>
        </Point>
      </Placemark>
    
      <Placemark>
        <name>W4VO</name>
        <description>test description</description>
        <Point>
          <coordinates>-83.39309692, 33.31389999, 0</coordinates>
        </Point>
      </Placemark>
    
      <Placemark>
        <name>W4LSG</name>
        <description>test description</description>
        <Point>
          <coordinates>-84.84130096, 33.92449951, 0</coordinates>
        </Point>
      </Placemark>
    
      <Placemark>
        <name>WB4GWA</name>
        <description>test description</description>
        <Point>
          <coordinates>-83.75740051, 34.94929886, 0</coordinates>
        </Point>
      </Placemark>
    
      <Placemark>
        <name>KM4MAD</name>
        <description>test description</description>
        <Point>
          <coordinates>-84.95110321, 34.50260162, 0</coordinates>
        </Point>
      </Placemark>
    
      <Placemark>
        <name>K4KNS</name>
        <description>test description</description>
        <Point>
          <coordinates>-81.57309723, 31.06189919, 0</coordinates>
        </Point>
      </Placemark>
    
      <Placemark>
        <name>KK4JPG</name>
        <description>test description</description>
        <Point>
          <coordinates>-84.98549652, 32.96580124, 0</coordinates>
        </Point>
      </Placemark>
    
      <Placemark>
        <name>K4SJR</name>
        <description>test description</description>
        <Point>
          <coordinates>-82.599265, 31.2347214, 0</coordinates>
        </Point>
      </Placemark>
    
      <Placemark>
        <name>AA4RI</name>
        <description>test description</description>
        <Point>
          <coordinates>-82.31629944, 33.54610062, 0</coordinates>
        </Point>
      </Placemark>
    
      <Placemark>
        <name>W4BOC</name>
        <description>test description</description>
        <Point>
          <coordinates>-82.39179993, 33.20759964, 0</coordinates>
        </Point>
      </Placemark>
    
      <Placemark>
        <name>KG4OGC</name>
        <description>test description</description>
        <Point>
          <coordinates>-82.8726, 31.5235, 0</coordinates>
        </Point>
      </Placemark>
    
      <Placemark>
        <name>NF4GA</name>
        <description>test description</description>
        <Point>
          <coordinates>-82.00969696, 33.4742012, 0</coordinates>
        </Point>
      </Placemark>
    
      <Placemark>
        <name>W4AMI</name>
        <description>test description</description>
        <Point>
          <coordinates>-82.14360046, 33.51649857, 0</coordinates>
        </Point>
      </Placemark>
    
      <Placemark>
        <name>KK4OIO</name>
        <description>test description</description>
        <Point>
          <coordinates>-82.00969696, 33.4742012, 0</coordinates>
        </Point>
      </Placemark>
    
      <Placemark>
        <name>W4LHS</name>
        <description>test description</description>
        <Point>
          <coordinates>-83.63240051, 32.84069824, 0</coordinates>
        </Point>
      </Placemark>
    
      <Placemark>
        <name>N4RSW</name>
        <description>test description</description>
        <Point>
          <coordinates>-83.63240051, 32.84069824, 0</coordinates>
        </Point>
      </Placemark>
    
      <Placemark>
        <name>KJ4ZZF</name>
        <description>test description</description>
        <Point>
          <coordinates>-83.7838974, 34.55580139, 0</coordinates>
        </Point>
      </Placemark>
    
      <Placemark>
        <name>K1KC</name>
        <description>test description</description>
        <Point>
          <coordinates>-83.78910065, 31.17989922, 0</coordinates>
        </Point>
      </Placemark>
    
      <Placemark>
        <name>WX4TC</name>
        <description>test description</description>
        <Point>
          <coordinates>-82.15509796, 32.582901, 0</coordinates>
        </Point>
      </Placemark>
    
      <Placemark>
        <name>W4CVY</name>
        <description>test description</description>
        <Point>
          <coordinates>-83.80239868, 32.94639969, 0</coordinates>
        </Point>
      </Placemark>
    
      <Placemark>
        <name>K4HAO</name>
        <description>test description</description>
        <Point>
          <coordinates>-83.17269897, 32.81129837, 0</coordinates>
        </Point>
      </Placemark>
    
      <Placemark>
        <name>KI4BEO</name>
        <description>test description</description>
        <Point>
          <coordinates>-83.63240051, 32.84069824, 0</coordinates>
        </Point>
      </Placemark>
    
      <Placemark>
        <name>K4BRK</name>
        <description>test description</description>
        <Point>
          <coordinates>-82.84989929, 31.50880051, 0</coordinates>
        </Point>
      </Placemark>
    
      <Placemark>
        <name>W4ABP</name>
        <description>test description</description>
        <Point>
          <coordinates>-80.86541, 32.013038, 0</coordinates>
        </Point>
      </Placemark>
    
      <Placemark>
        <name>WM4B</name>
        <description>test description</description>
        <Point>
          <coordinates>-81.7213418, 30.9675111, 0</coordinates>
        </Point>
      </Placemark>
    
      <Placemark>
        <name>KG4PXG</name>
        <description>test description</description>
        <Point>
          <coordinates>-81.09980011, 32.08349991, 0</coordinates>
        </Point>
      </Placemark>
    
      <Placemark>
        <name>W7TJT</name>
        <description>test description</description>
        <Point>
          <coordinates>-84.1428, 33.5071, 0</coordinates>
        </Point>
      </Placemark>
    
      <Placemark>
        <name>K4SJR</name>
        <description>test description</description>
        <Point>
          <coordinates>-84.0177002, 33.66759872, 0</coordinates>
        </Point>
      </Placemark>
    
      <Placemark>
        <name>AB4KE</name>
        <description>test description</description>
        <Point>
          <coordinates>-84.45490265, 33.44869995, 0</coordinates>
        </Point>
      </Placemark>
    
      <Placemark>
        <name>W4PCF</name>
        <description>test description</description>
        <Point>
          <coordinates>-84.39479828, 33.79679871, 0</coordinates>
        </Point>
      </Placemark>
    
      <Placemark>
        <name>W4CMB</name>
        <description>test description</description>
        <Point>
          <coordinates>-84.42910004, 34.46789932, 0</coordinates>
        </Point>
      </Placemark>
    
      <Placemark>
        <name>KI4FVI</name>
        <description>test description</description>
        <Point>
          <coordinates>-83.7315979, 32.45819855, 0</coordinates>
        </Point>
      </Placemark>
    
      <Placemark>
        <name>W4ABZ</name>
        <description>test description</description>
        <Point>
          <coordinates>-85.25350189, 34.01850128, 0</coordinates>
        </Point>
      </Placemark>
    
      <Placemark>
        <name>N4SFU</name>
        <description>test description</description>
        <Point>
          <coordinates>-83.95819855, 34.87620163, 0</coordinates>
        </Point>
      </Placemark>
    
      <Placemark>
        <name>W4MM</name>
        <description>test description</description>
        <Point>
          <coordinates>-84.339183, 34.52105, 0</coordinates>
        </Point>
      </Placemark>
    
      <Placemark>
        <name>WA4DDI</name>
        <description>test description</description>
        <Point>
          <coordinates>-84.68099976, 32.89039993, 0</coordinates>
        </Point>
      </Placemark>
    
      <Placemark>
        <name>K4WOC</name>
        <description>test description</description>
        <Point>
          <coordinates>-84.4937973, 34.71409988, 0</coordinates>
        </Point>
      </Placemark>
    
      <Placemark>
        <name>W4CVY</name>
        <description>test description</description>
        <Point>
          <coordinates>-84.02449799, 33.85839844, 0</coordinates>
        </Point>
      </Placemark>
    
      <Placemark>
        <name>W4ECA</name>
        <description>test description</description>
        <Point>
          <coordinates>-83.33239746, 34.57730103, 0</coordinates>
        </Point>
      </Placemark>
    
      <Placemark>
        <name>W4BOC</name>
        <description>test description</description>
        <Point>
          <coordinates>-84.23269653, 32.07239914, 0</coordinates>
        </Point>
      </Placemark>
    
      <Placemark>
        <name>K4SOD</name>
        <description>test description</description>
        <Point>
          <coordinates>-82.41349792, 32.21770096, 0</coordinates>
        </Point>
      </Placemark>
    
      <Placemark>
        <name>W4VLD</name>
        <description>test description</description>
        <Point>
          <coordinates>-84.01989746, 33.8572998, 0</coordinates>
        </Point>
      </Placemark>
    
      <Placemark>
        <name>WA4DDI</name>
        <description>test description</description>
        <Point>
          <coordinates>-83.68810272, 32.64590073, 0</coordinates>
        </Point>
      </Placemark>
    
      <Placemark>
        <name>AB4KK</name>
        <description>test description</description>
        <Point>
          <coordinates>-83.455278, 33.9625, 0</coordinates>
        </Point>
      </Placemark>
    
      <Placemark>
        <name>K4NRC</name>
        <description>test description</description>
        <Point>
          <coordinates>-83.7696371, 32.0872209, 0</coordinates>
        </Point>
      </Placemark>
    
      <Placemark>
        <name>AA4P</name>
        <description>test description</description>
        <Point>
          <coordinates>-85.0007019, 32.98880005, 0</coordinates>
        </Point>
      </Placemark>
    
      <Placemark>
        <name>N4SFU</name>
        <description>test description</description>
        <Point>
          <coordinates>-83.65319824, 31.70599937, 0</coordinates>
        </Point>
      </Placemark>
    
      <Placemark>
        <name>KC4AQS</name>
        <description>test description</description>
        <Point>
          <coordinates>-84.39733, 33.775867, 0</coordinates>
        </Point>
      </Placemark>
    
      <Placemark>
        <name>W4MM</name>
        <description>test description</description>
        <Point>
          <coordinates>-84.16049957, 34.23680115, 0</coordinates>
        </Point>
      </Placemark>
    
      <Placemark>
        <name>W4DOC</name>
        <description>test description</description>
        <Point>
          <coordinates>-84.3476938, 34.4841389, 0</coordinates>
        </Point>
      </Placemark>
    
      <Placemark>
        <name>WB4NFG</name>
        <description>test description</description>
        <Point>
          <coordinates>-84.97019958, 34.76979828, 0</coordinates>
        </Point>
      </Placemark>
    
      <Placemark>
        <name>N4KHQ</name>
        <description>test description</description>
        <Point>
          <coordinates>-84.26409912, 33.24679947, 0</coordinates>
        </Point>
      </Placemark>
    
      <Placemark>
        <name>W4NAS</name>
        <description>test description</description>
        <Point>
          <coordinates>-81.773798, 32.455281, 0</coordinates>
        </Point>
      </Placemark>
    
      <Placemark>
        <name>KI4ENN</name>
        <description>test description</description>
        <Point>
          <coordinates>-81.61801, 32.14699, 0</coordinates>
        </Point>
      </Placemark>
    
      <Placemark>
        <name>KE4ZFR</name>
        <description>test description</description>
        <Point>
          <coordinates>-83.71690369, 33.56620026, 0</coordinates>
        </Point>
      </Placemark>
    
      <Placemark>
        <name>KD4IEZ</name>
        <description>test description</description>
        <Point>
          <coordinates>-84.43740082, 33.09120178, 0</coordinates>
        </Point>
      </Placemark>
    
      <Placemark>
        <name>WA4NKL</name>
        <description>test description</description>
        <Point>
          <coordinates>-83.9453995, 33.0314778, 0</coordinates>
        </Point>
      </Placemark>
    
      <Placemark>
        <name>W4CMB</name>
        <description>test description</description>
        <Point>
          <coordinates>-82.71990204, 32.72930145, 0</coordinates>
        </Point>
      </Placemark>
    
      <Placemark>
        <name>K4QHR</name>
        <description>test description</description>
        <Point>
          <coordinates>-83.63809967, 32.60860062, 0</coordinates>
        </Point>
      </Placemark>
    
      <Placemark>
        <name>KD4UTQ</name>
        <description>test description</description>
        <Point>
          <coordinates>-81.90399933, 32.16159821, 0</coordinates>
        </Point>
      </Placemark>
    
      <Placemark>
        <name>K4GAR</name>
        <description>test description</description>
        <Point>
          <coordinates>-83.1828732, 30.6846637, 0</coordinates>
        </Point>
      </Placemark>
    
      <Placemark>
        <name>WA4ASI</name>
        <description>test description</description>
        <Point>
          <coordinates>-83.38240051, 33.9557991, 0</coordinates>
        </Point>
      </Placemark>
    
      <Placemark>
        <name>KE4RAP</name>
        <description>test description</description>
        <Point>
          <coordinates>-84.02739716, 32.30519867, 0</coordinates>
        </Point>
      </Placemark>
    
      <Placemark>
        <name>W4VO</name>
        <description>test description</description>
        <Point>
          <coordinates>-83.39499664, 30.74309921, 0</coordinates>
        </Point>
      </Placemark>
    
      <Placemark>
        <name>WA4RVB</name>
        <description>test description</description>
        <Point>
          <coordinates>-83.63150024, 32.6169014, 0</coordinates>
        </Point>
      </Placemark>
    
      <Placemark>
        <name>KD4AOZ</name>
        <description>test description</description>
        <Point>
          <coordinates>-84.72049713, 34.84090042, 0</coordinates>
        </Point>
      </Placemark>
    
      <Placemark>
        <name>K5PRE</name>
        <description>test description</description>
        <Point>
          <coordinates>-84.54989624, 33.95259857, 0</coordinates>
        </Point>
      </Placemark>
    
      <Placemark>
        <name>WB4QOJ</name>
        <description>test description</description>
        <Point>
          <coordinates>-81.4836, 31.11884, 0</coordinates>
        </Point>
      </Placemark>
    
      <Placemark>
        <name>WR4MG</name>
        <description>test description</description>
        <Point>
          <coordinates>-85.10910034, 34.91590118, 0</coordinates>
        </Point>
      </Placemark>
    
      <Placemark>
        <name>W4LHS</name>
        <description>test description</description>
        <Point>
          <coordinates>-83.32189941, 30.8491993, 0</coordinates>
        </Point>
      </Placemark>
    
      <Placemark>
        <name>KC4ZGN</name>
        <description>test description</description>
        <Point>
          <coordinates>-83.32180023, 30.8491993, 0</coordinates>
        </Point>
      </Placemark>
    
      <Placemark>
        <name>K4KNS</name>
        <description>test description</description>
        <Point>
          <coordinates>-85.50910187, 34.87200165, 0</coordinates>
        </Point>
      </Placemark>
    
      <Placemark>
        <name>KN4FE</name>
        <description>test description</description>
        <Point>
          <coordinates>-85.34770203, 34.48059845, 0</coordinates>
        </Point>
      </Placemark>
    
      <Placemark>
        <name>W4EEE</name>
        <description>test description</description>
        <Point>
          <coordinates>-85.01249695, 33.57699966, 0</coordinates>
        </Point>
      </Placemark>
    
      <Placemark>
        <name>N4SFU</name>
        <description>test description</description>
        <Point>
          <coordinates>-84.8413056, 33.9244531, 0</coordinates>
        </Point>
      </Placemark>
    
      <Placemark>
        <name>WX4EMA</name>
        <description>test description</description>
        <Point>
          <coordinates>-81.61620331, 30.78549957, 0</coordinates>
        </Point>
      </Placemark>
    
      <Placemark>
        <name>WD4AUX </name>
        <description>test description</description>
        <Point>
          <coordinates>-83.75279999, 31.40309906, 0</coordinates>
        </Point>
      </Placemark>
    
      <Placemark>
        <name>WA4GBT</name>
        <description>test description</description>
        <Point>
          <coordinates>-83.79290009, 32.6114006, 0</coordinates>
        </Point>
      </Placemark>
    
      <Placemark>
        <name>KE4ZRT</name>
        <description>test description</description>
        <Point>
          <coordinates>-82.88210297, 32.25019836, 0</coordinates>
        </Point>
      </Placemark>
    
      <Placemark>
        <name>KD4AOZ</name>
        <description>test description</description>
        <Point>
          <coordinates>-84.22740173, 33.51119995, 0</coordinates>
        </Point>
      </Placemark>
    
      <Placemark>
        <name>NF4GA</name>
        <description>test description</description>
        <Point>
          <coordinates>-84.4730374, 34.0670772, 0</coordinates>
        </Point>
      </Placemark>
    
      <Placemark>
        <name>W4UCJ</name>
        <description>test description</description>
        <Point>
          <coordinates>-84.362401, 32.983861, 0</coordinates>
        </Point>
      </Placemark>
    
      <Placemark>
        <name>W4CLA</name>
        <description>test description</description>
        <Point>
          <coordinates>-84.751226, 33.746948, 0</coordinates>
        </Point>
      </Placemark>
    
      <Placemark>
        <name>W4GR</name>
        <description>test description</description>
        <Point>
          <coordinates>-85.234883, 34.233217, 0</coordinates>
        </Point>
      </Placemark>
    
      <Placemark>
        <name>K4EGA</name>
        <description>test description</description>
        <Point>
          <coordinates>-84.2440033, 34.87490082, 0</coordinates>
        </Point>
      </Placemark>
    
      <Placemark>
        <name>WB4RTH</name>
        <description>test description</description>
        <Point>
          <coordinates>-84.81313, 33.384114, 0</coordinates>
        </Point>
      </Placemark>
    
      <Placemark>
        <name>KF4DG</name>
        <description>test description</description>
        <Point>
          <coordinates>-84.649759, 33.505941, 0</coordinates>
        </Point>
      </Placemark>
    
      <Placemark>
        <name>W4CMA</name>
        <description>test description</description>
        <Point>
          <coordinates>-84.710938, 33.438231, 0</coordinates>
        </Point>
      </Placemark>
    
      <Placemark>
        <name>N4TS</name>
        <description>test description</description>
        <Point>
          <coordinates>-84.38790131, 33.74890137, 0</coordinates>
        </Point>
      </Placemark>
    
      <Placemark>
        <name>K4KNS</name>
        <description>test description</description>
        <Point>
          <coordinates>-85.234883, 34.233217, 0</coordinates>
        </Point>
      </Placemark>
    
      <Placemark>
        <name>N4BZJ</name>
        <description>test description</description>
        <Point>
          <coordinates>-81.98458, 30.85333, 0</coordinates>
        </Point>
      </Placemark>
    
      <Placemark>
        <name>WR4SG</name>
        <description>test description</description>
        <Point>
          <coordinates>-81.39150238, 32.3362999, 0</coordinates>
        </Point>
      </Placemark>
    
      <Placemark>
        <name>WA4FRI</name>
        <description>test description</description>
        <Point>
          <coordinates>-82.6908, 31.4853, 0</coordinates>
        </Point>
      </Placemark>
    
      <Placemark>
        <name>WB4GQX</name>
        <description>test description</description>
        <Point>
          <coordinates>-83.46790314, 33.59569931, 0</coordinates>
        </Point>
      </Placemark>
    
      <Placemark>
        <name>KK4NTE</name>
        <description>test description</description>
        <Point>
          <coordinates>-83.78990173, 30.79190063, 0</coordinates>
        </Point>
      </Placemark>
    
      <Placemark>
        <name>K4NRC</name>
        <description>test description</description>
        <Point>
          <coordinates>-84.76490021, 34.12080002, 0</coordinates>
        </Point>
      </Placemark>
    
      <Placemark>
        <name>WD4NHW</name>
        <description>test description</description>
        <Point>
          <coordinates>-82.81009674, 32.98149872, 0</coordinates>
        </Point>
      </Placemark>
    
      <Placemark>
        <name>W4DV</name>
        <description>test description</description>
        <Point>
          <coordinates>-83.78330231, 30.79999924, 0</coordinates>
        </Point>
      </Placemark>
    
      <Placemark>
        <name>WR4VR</name>
        <description>test description</description>
        <Point>
          <coordinates>-83.80680084, 34.50510025, 0</coordinates>
        </Point>
      </Placemark>
    
      <Placemark>
        <name>WB4BDP</name>
        <description>test description</description>
        <Point>
          <coordinates>-84.75910187, 34.19400024, 0</coordinates>
        </Point>
      </Placemark>
    
      <Placemark>
        <name>WR4MG</name>
        <description>test description</description>
        <Point>
          <coordinates>-84.15570068, 31.57850075, 0</coordinates>
        </Point>
      </Placemark>
    
      <Placemark>
        <name>N3DAB</name>
        <description>test description</description>
        <Point>
          <coordinates>-84.51899719, 34.65650177, 0</coordinates>
        </Point>
      </Placemark>
    
      <Placemark>
        <name>WA4GBT</name>
        <description>test description</description>
        <Point>
          <coordinates>-84.15570068, 31.57850075, 0</coordinates>
        </Point>
      </Placemark>
    
      <Placemark>
        <name>KB4CC</name>
        <description>test description</description>
        <Point>
          <coordinates>-83.97879791, 30.83659935, 0</coordinates>
        </Point>
      </Placemark>
    
      <Placemark>
        <name>W4NGT</name>
        <description>test description</description>
        <Point>
          <coordinates>-83.98249817, 30.83320045, 0</coordinates>
        </Point>
      </Placemark>
    
      <Placemark>
        <name>W8JI</name>
        <description>test description</description>
        <Point>
          <coordinates>-83.38240051, 33.9557991, 0</coordinates>
        </Point>
      </Placemark>
    
      <Placemark>
        <name>KK4QWH</name>
        <description>test description</description>
        <Point>
          <coordinates>-83.40879822, 33.86289978, 0</coordinates>
        </Point>
      </Placemark>
    
      <Placemark>
        <name>W4UCJ</name>
        <description>test description</description>
        <Point>
          <coordinates>-81.88539886, 31.60740089, 0</coordinates>
        </Point>
      </Placemark>
    
      <Placemark>
        <name>W4CLM</name>
        <description>test description</description>
        <Point>
          <coordinates>-83.98010254, 33.30469894, 0</coordinates>
        </Point>
      </Placemark>
    
      <Placemark>
        <name>WB4NFG</name>
        <description>test description</description>
        <Point>
          <coordinates>-83.17769623, 32.1977005, 0</coordinates>
        </Point>
      </Placemark>
    
      <Placemark>
        <name>W4GR</name>
        <description>test description</description>
        <Point>
          <coordinates>-83.55989838, 30.78490067, 0</coordinates>
        </Point>
      </Placemark>
    
      <Placemark>
        <name>W4VIR</name>
        <description>test description</description>
        <Point>
          <coordinates>-83.72019958, 33.99259949, 0</coordinates>
        </Point>
      </Placemark>
    
      <Placemark>
        <name>WC4RG</name>
        <description>test description</description>
        <Point>
          <coordinates>-84.9190979, 33.73210144, 0</coordinates>
        </Point>
      </Placemark>
    
      <Placemark>
        <name>WX4BCA</name>
        <description>test description</description>
        <Point>
          <coordinates>-83.16329956, 33.05500031, 0</coordinates>
        </Point>
      </Placemark>
    
      <Placemark>
        <name>W4PVW</name>
        <description>test description</description>
        <Point>
          <coordinates>-84.6875, 34.42630005, 0</coordinates>
        </Point>
      </Placemark>
    
      <Placemark>
        <name>WR4MG</name>
        <description>test description</description>
        <Point>
          <coordinates>-84.32019806, 34.06669998, 0</coordinates>
        </Point>
      </Placemark>
    
      <Placemark>
        <name>N4EBY</name>
        <description>test description</description>
        <Point>
          <coordinates>-84.3733147, 33.9304352, 0</coordinates>
        </Point>
      </Placemark>
    
      <Placemark>
        <name>AD4EQ</name>
        <description>test description</description>
        <Point>
          <coordinates>-83.10679626, 34.43590164, 0</coordinates>
        </Point>
      </Placemark>
    
      <Placemark>
        <name>KD4IEZ</name>
        <description>test description</description>
        <Point>
          <coordinates>-83.23519897, 34.36980057, 0</coordinates>
        </Point>
      </Placemark>
    
      <Placemark>
        <name>WB4BXO</name>
        <description>test description</description>
        <Point>
          <coordinates>-83.655235, 32.649022, 0</coordinates>
        </Point>
      </Placemark>
    
      <Placemark>
        <name>KR4CW</name>
        <description>test description</description>
        <Point>
          <coordinates>-83.80909729, 33.81380081, 0</coordinates>
        </Point>
      </Placemark>
    
      <Placemark>
        <name>N4NEQ</name>
        <description>test description</description>
        <Point>
          <coordinates>-84.64880371, 34.31309891, 0</coordinates>
        </Point>
      </Placemark>
    
      <Placemark>
        <name>WA4HZX</name>
        <description>test description</description>
        <Point>
          <coordinates>-84.3384477, 34.5209425, 0</coordinates>
        </Point>
      </Placemark>
    
      <Placemark>
        <name>K4NRC</name>
        <description>test description</description>
        <Point>
          <coordinates>-84.25489807, 33.70569992, 0</coordinates>
        </Point>
      </Placemark>
    
      <Placemark>
        <name>K4TQU</name>
        <description>test description</description>
        <Point>
          <coordinates>-84.14579773, 33.80619812, 0</coordinates>
        </Point>
      </Placemark>
    
      <Placemark>
        <name>KB4WQA</name>
        <description>test description</description>
        <Point>
          <coordinates>-85.39420319, 34.86270142, 0</coordinates>
        </Point>
      </Placemark>
    
      <Placemark>
        <name>WA4OKJ</name>
        <description>test description</description>
        <Point>
          <coordinates>-84.9817619, 33.8426817, 0</coordinates>
        </Point>
      </Placemark>
    
      <Placemark>
        <name>KF4DG</name>
        <description>test description</description>
        <Point>
          <coordinates>-82.883856, 34.191686, 0</coordinates>
        </Point>
      </Placemark>
    
      <Placemark>
        <name>W4OHH</name>
        <description>test description</description>
        <Point>
          <coordinates>-84.17009735, 33.07509995, 0</coordinates>
        </Point>
      </Placemark>
    
      <Placemark>
        <name>WC4RAV</name>
        <description>test description</description>
        <Point>
          <coordinates>-85.16470337, 34.25699997, 0</coordinates>
        </Point>
      </Placemark>
</Document>    
</kml>

